[{"name": "Mumbai", "pop": 20700000, "lat": 19.07, "lng": 72.87, "state": "Maharashtra", "capital": true}, {"name": "Delhi", "pop": 16500000, "lat": 28.65, "lng": 77.23, "state": "Delhi", "capital": false}, {"name": "Kolkata", "pop": 14900000, "lat": 22.57, "lng": 88.36, "state": "West Bengal", "capital": true}, {"name": "Bengaluru", "pop": 12300000, "lat": 12.97, "lng": 77.59, "state": "Karnataka", "capital": true}, {"name": "Chennai", "pop": 10900000, "lat": 13.08, "lng": 80.27, "state": "Tamil Nadu", "capital": true}, {"name": "Hyderabad", "pop": 9700000, "lat": 17.38, "lng": 78.48, "state": "Telangana", "capital": true}, {"name": "Ahmedabad", "pop": 8400000, "lat": 23.02, "lng": 72.57, "state": "Gujarat", "capital": false}, {"name": "Pune", "pop": 6600000, "lat": 18.52, "lng": 73.86, "state": "Maharashtra", "capital": false}, {"name": "Surat", "pop": 6500000, "lat": 21.17, "lng": 72.83, "state": "Gujarat", "capital": false}, {"name": "Lucknow", "pop": 3700000, "lat": 26.85, "lng": 80.94, "state": "Uttar Pradesh", "capital": true}, {"name": "Indore", "pop": 3300000, "lat": 22.72, "lng": 75.86, "state": "Madhya Pradesh", "capital": false}, {"name": "Jaipur", "pop": 3100000, "lat": 26.91, "lng": 75.79, "state": "Rajasthan", "capital": true}, {"name": "Kanpur", "pop": 3100000, "lat": 26.46, "lng": 80.33, "state": "Uttar Pradesh", "capital": false}, {"name": "Nagpur", "pop": 2500000, "lat": 21.15, "lng": 79.08, "state": "Maharashtra", "capital": false}, {"name": "Patna", "pop": 2500000, "lat": 25.59, "lng": 85.14, "state": "Bihar", "capital": true}, {"name": "Coimbatore", "pop": 2200000, "lat": 11.01, "lng": 76.96, "state": "Tamil Nadu", "capital": false}, {"name": "Vadodara", "pop": 2100000, "lat": 22.31, "lng": 73.18, "state": "Gujarat", "capital": false}, {"name": "Kochi", "pop": 2100000, "lat": 9.93, "lng": 76.27, "state": "Kerala", "capital": false}, {"name": "Visakhapatnam", "pop": 2000000, "lat": 17.69, "lng": 83.22, "state": "Andhra Pradesh", "capital": false}, {"name": "Thane", "pop": 1900000, "lat": 19.2, "lng": 72.96, "state": "Maharashtra", "capital": false}, {"name": "Bhopal", "pop": 1900000, "lat": 23.26, "lng": 77.41, "state": "Madhya Pradesh", "capital": true}, {"name": "Agra", "pop": 1800000, "lat": 27.18, "lng": 78.01, "state": "Uttar Pradesh", "capital": false}, {"name": "Ghaziabad", "pop": 1700000, "lat": 28.67, "lng": 77.42, "state": "Uttar Pradesh", "capital": false}, {"name": "Ludhiana", "pop": 1700000, "lat": 30.9, "lng": 75.86, "state": "Punjab", "capital": false}, {"name": "Nashik", "pop": 1500000, "lat": 20.01, "lng": 73.79, "state": "Maharashtra", "capital": false}, {"name": "Faridabad", "pop": 1500000, "lat": 28.41, "lng": 77.31, "state": "Haryana", "capital": false}, {"name": "Rajkot", "pop": 1500000, "lat": 22.3, "lng": 70.8, "state": "Gujarat", "capital": false}, {"name": "Prayagraj", "pop": 1500000, "lat": 25.44, "lng": 81.84, "state": "Uttar Pradesh", "capital": false}, {"name": "Vijayawada", "pop": 1500000, "lat": 16.51, "lng": 80.62, "state": "Andhra Pradesh", "capital": false}, {"name": "Madurai", "pop": 1500000, "lat": 9.92, "lng": 78.12, "state": "Tamil Nadu", "capital": false}, {"name": "Gurgaon", "pop": 1500000, "lat": 28.46, "lng": 77.03, "state": "Haryana", "capital": false}, {"name": "Meerut", "pop": 1400000, "lat": 28.98, "lng": 77.71, "state": "Uttar Pradesh", "capital": false}, {"name": "Varanasi", "pop": 1400000, "lat": 25.32, "lng": 83.0, "state": "Uttar Pradesh", "capital": false}, {"name": "Asansol", "pop": 1300000, "lat": 23.69, "lng": 86.96, "state": "West Bengal", "capital": false}, {"name": "Srinagar", "pop": 1200000, "lat": 34.08, "lng": 74.8, "state": "Jammu and Kashmir", "capital": true}, {"name": "Aurangabad", "pop": 1200000, "lat": 19.88, "lng": 75.34, "state": "Maharashtra", "capital": false}, {"name": "Dhanbad", "pop": 1200000, "lat": 23.79, "lng": 86.43, "state": "Jharkhand", "capital": false}, {"name": "Amritsar", "pop": 1200000, "lat": 31.63, "lng": 74.87, "state": "Punjab", "capital": false}, {"name": "Navi Mumbai", "pop": 1200000, "lat": 19.03, "lng": 73.03, "state": "Maharashtra", "capital": false}, {"name": "Jabalpur", "pop": 1200000, "lat": 23.18, "lng": 79.94, "state": "Madhya Pradesh", "capital": false}, {"name": "Howrah", "pop": 1100000, "lat": 22.59, "lng": 88.31, "state": "West Bengal", "capital": false}, {"name": "Ranchi", "pop": 1100000, "lat": 23.34, "lng": 85.31, "state": "Jharkhand", "capital": true}, {"name": "Gwalior", "pop": 1100000, "lat": 26.22, "lng": 78.18, "state": "Madhya Pradesh", "capital": false}, {"name": "Jodhpur", "pop": 1100000, "lat": 26.29, "lng": 73.02, "state": "Rajasthan", "capital": false}, {"name": "Raipur", "pop": 1100000, "lat": 21.25, "lng": 81.63, "state": "Chhattisgarh", "capital": true}, {"name": "Kota", "pop": 1000000, "lat": 25.18, "lng": 75.85, "state": "Rajasthan", "capital": false}, {"name": "Guwahati", "pop": 1000000, "lat": 26.14, "lng": 91.74, "state": "Assam", "capital": false}, {"name": "Chandigarh", "pop": 1000000, "lat": 30.73, "lng": 76.78, "state": "Chandigarh", "capital": true}, {"name": "Bhubaneswar", "pop": 1000000, "lat": 20.29, "lng": 85.82, "state": "Odisha", "capital": true}, {"name": "Thiruvananthapuram", "pop": 960000, "lat": 8.52, "lng": 76.93, "state": "Kerala", "capital": true}, {"name": "Solapur", "pop": 950000, "lat": 17.68, "lng": 75.91, "state": "Maharashtra", "capital": false}, {"name": "Hubli-Dharwad", "pop": 940000, "lat": 15.36, "lng": 75.12, "state": "Karnataka", "capital": false}, {"name": "Mysuru", "pop": 920000, "lat": 12.3, "lng": 76.65, "state": "Karnataka", "capital": false}, {"name": "Tiruchirappalli", "pop": 920000, "lat": 10.79, "lng": 78.7, "state": "Tamil Nadu", "capital": false}, {"name": "Salem", "pop": 920000, "lat": 11.67, "lng": 78.15, "state": "Tamil Nadu", "capital": false}, {"name": "Bareilly", "pop": 900000, "lat": 28.36, "lng": 79.42, "state": "Uttar Pradesh", "capital": false}, {"name": "Moradabad", "pop": 900000, "lat": 28.84, "lng": 78.77, "state": "Uttar Pradesh", "capital": false}, {"name": "Rohini", "pop": 900000, "lat": 28.74, "lng": 77.11, "state": "Delhi", "capital": false}, {"name": "Aligarh", "pop": 870000, "lat": 27.88, "lng": 78.08, "state": "Uttar Pradesh", "capital": false}, {"name": "Jalandhar", "pop": 870000, "lat": 31.33, "lng": 75.58, "state": "Punjab", "capital": false}, {"name": "Warangal", "pop": 810000, "lat": 17.97, "lng": 79.59, "state": "Telangana", "capital": false}, {"name": "Mira-Bhayandar", "pop": 810000, "lat": 19.29, "lng": 72.86, "state": "Maharashtra", "capital": false}, {"name": "Jamshedpur", "pop": 800000, "lat": 22.8, "lng": 86.18, "state": "Jharkhand", "capital": false}, {"name": "Dwarka", "pop": 800000, "lat": 28.59, "lng": 77.04, "state": "Delhi", "capital": false}, {"name": "Bhilai", "pop": 750000, "lat": 21.21, "lng": 81.38, "state": "Chhattisgarh", "capital": false}, {"name": "Guntur", "pop": 740000, "lat": 16.31, "lng": 80.44, "state": "Andhra Pradesh", "capital": false}, {"name": "Siliguri", "pop": 730000, "lat": 26.71, "lng": 88.43, "state": "West Bengal", "capital": false}, {"name": "Amravati", "pop": 700000, "lat": 20.93, "lng": 77.75, "state": "Maharashtra", "capital": false}, {"name": "Shahdara", "pop": 700000, "lat": 28.68, "lng": 77.29, "state": "Delhi", "capital": false}, {"name": "Cuttack", "pop": 670000, "lat": 20.46, "lng": 85.88, "state": "Odisha", "capital": false}, {"name": "Gorakhpur", "pop": 670000, "lat": 26.76, "lng": 83.37, "state": "Uttar Pradesh", "capital": false}, {"name": "Noida", "pop": 640000, "lat": 28.54, "lng": 77.39, "state": "Uttar Pradesh", "capital": false}, {"name": "Firozabad", "pop": 610000, "lat": 27.15, "lng": 78.39, "state": "Uttar Pradesh", "capital": false}, {"name": "Kozhikode", "pop": 610000, "lat": 11.25, "lng": 75.78, "state": "Kerala", "capital": false}, {"name": "Bhavnagar", "pop": 600000, "lat": 21.76, "lng": 72.15, "state": "Gujarat", "capital": false}, {"name": "Dehradun", "pop": 600000, "lat": 30.32, "lng": 78.03, "state": "Uttarakhand", "capital": true}, {"name": "Durgapur", "pop": 600000, "lat": 23.48, "lng": 87.32, "state": "West Bengal", "capital": false}, {"name": "Rourkela", "pop": 550000, "lat": 22.22, "lng": 84.86, "state": "Odisha", "capital": false}, {"name": "Nanded", "pop": 550000, "lat": 19.17, "lng": 77.3, "state": "Maharashtra", "capital": false}, {"name": "Kolhapur", "pop": 550000, "lat": 16.7, "lng": 74.24, "state": "Maharashtra", "capital": false}, {"name": "Ajmer", "pop": 550000, "lat": 26.45, "lng": 74.64, "state": "Rajasthan", "capital": false}, {"name": "Gulbarga", "pop": 530000, "lat": 17.33, "lng": 76.84, "state": "Karnataka", "capital": false}, {"name": "Jamnagar", "pop": 530000, "lat": 22.47, "lng": 70.07, "state": "Gujarat", "capital": false}, {"name": "Ujjain", "pop": 520000, "lat": 23.18, "lng": 75.78, "state": "Madhya Pradesh", "capital": false}, {"name": "Loni", "pop": 520000, "lat": 28.75, "lng": 77.28, "state": "Uttar Pradesh", "capital": false}, {"name": "Jhansi", "pop": 510000, "lat": 25.45, "lng": 78.57, "state": "Uttar Pradesh", "capital": false}, {"name": "Ulhasnagar", "pop": 500000, "lat": 19.22, "lng": 73.16, "state": "Maharashtra", "capital": false}, {"name": "Nellore", "pop": 500000, "lat": 14.44, "lng": 79.99, "state": "Andhra Pradesh", "capital": false}, {"name": "Jammu", "pop": 500000, "lat": 32.73, "lng": 74.87, "state": "Jammu and Kashmir", "capital": false}, {"name": "Sangli-Miraj", "pop": 500000, "lat": 16.86, "lng": 74.57, "state": "Maharashtra", "capital": false}, {"name": "Erode", "pop": 500000, "lat": 11.34, "lng": 77.73, "state": "Tamil Nadu", "capital": false}, {"name": "Bokaro", "pop": 500000, "lat": 23.67, "lng": 86.15, "state": "Jharkhand", "capital": false}, {"name": "Belagavi", "pop": 490000, "lat": 15.85, "lng": 74.5, "state": "Karnataka", "capital": false}, {"name": "Mangaluru", "pop": 490000, "lat": 12.87, "lng": 74.84, "state": "Karnataka", "capital": false}, {"name": "Tirunelveli", "pop": 480000, "lat": 8.73, "lng": 77.7, "state": "Tamil Nadu", "capital": false}, {"name": "Malegaon", "pop": 480000, "lat": 20.55, "lng": 74.53, "state": "Maharashtra", "capital": false}, {"name": "Gaya", "pop": 470000, "lat": 24.79, "lng": 85.0, "state": "Bihar", "capital": false}, {"name": "Udaipur", "pop": 470000, "lat": 24.57, "lng": 73.69, "state": "Rajasthan", "capital": false}, {"name": "Dhule", "pop": 460000, "lat": 20.9, "lng": 74.77, "state": "Maharashtra", "capital": false}, {"name": "Jalgaon", "pop": 460000, "lat": 21.01, "lng": 75.57, "state": "Maharashtra", "capital": false}, {"name": "Kakinada", "pop": 450000, "lat": 16.96, "lng": 82.24, "state": "Andhra Pradesh", "capital": false}, {"name": "Davanagere", "pop": 450000, "lat": 14.46, "lng": 75.92, "state": "Karnataka", "capital": false}, {"name": "Akola", "pop": 450000, "lat": 20.71, "lng": 77.01, "state": "Maharashtra", "capital": false}, {"name": "Tirupati", "pop": 450000, "lat": 13.65, "lng": 79.42, "state": "Andhra Pradesh", "capital": false}, {"name": "Tiruppur", "pop": 450000, "lat": 11.11, "lng": 77.35, "state": "Tamil Nadu", "capital": false}, {"name": "Kurnool", "pop": 430000, "lat": 15.83, "lng": 78.04, "state": "Andhra Pradesh", "capital": false}, {"name": "Muzaffarpur", "pop": 420000, "lat": 26.12, "lng": 85.39, "state": "Bihar", "capital": false}, {"name": "Vellore", "pop": 420000, "lat": 12.92, "lng": 79.13, "state": "Tamil Nadu", "capital": false}, {"name": "Bhagalpur", "pop": 410000, "lat": 25.24, "lng": 87.01, "state": "Bihar", "capital": false}, {"name": "Bellary", "pop": 410000, "lat": 15.15, "lng": 76.93, "state": "Karnataka", "capital": false}, {"name": "Patiala", "pop": 410000, "lat": 30.34, "lng": 76.39, "state": "Punjab", "capital": false}, {"name": "Rohtak", "pop": 400000, "lat": 28.89, "lng": 76.6, "state": "Haryana", "capital": false}, {"name": "Korba", "pop": 400000, "lat": 22.35, "lng": 82.68, "state": "Chhattisgarh", "capital": false}, {"name": "Bhilwara", "pop": 400000, "lat": 25.35, "lng": 74.64, "state": "Rajasthan", "capital": false}, {"name": "Brahmapur", "pop": 400000, "lat": 19.31, "lng": 84.79, "state": "Odisha", "capital": false}, {"name": "Agartala", "pop": 400000, "lat": 23.83, "lng": 91.27, "state": "Tripura", "capital": true}, {"name": "Muzaffarnagar", "pop": 390000, "lat": 29.47, "lng": 77.7, "state": "Uttar Pradesh", "capital": false}, {"name": "Ahmednagar", "pop": 380000, "lat": 19.09, "lng": 74.74, "state": "Maharashtra", "capital": false}, {"name": "Mathura", "pop": 370000, "lat": 27.49, "lng": 77.67, "state": "Uttar Pradesh", "capital": false}, {"name": "Bikaner", "pop": 370000, "lat": 28.02, "lng": 73.3, "state": "Rajasthan", "capital": false}, {"name": "Bilaspur", "pop": 370000, "lat": 22.09, "lng": 82.15, "state": "Chhattisgarh", "capital": false}, {"name": "Saharanpur", "pop": 370000, "lat": 29.96, "lng": 77.55, "state": "Uttar Pradesh", "capital": false}, {"name": "Purnia", "pop": 360000, "lat": 25.78, "lng": 87.47, "state": "Bihar", "capital": false}, {"name": "Satara", "pop": 360000, "lat": 17.69, "lng": 74.0, "state": "Maharashtra", "capital": false}, {"name": "Berhampur", "pop": 360000, "lat": 19.31, "lng": 84.79, "state": "Odisha", "capital": false}, {"name": "Latur", "pop": 350000, "lat": 18.4, "lng": 76.56, "state": "Maharashtra", "capital": false}, {"name": "Panipat", "pop": 350000, "lat": 29.39, "lng": 76.97, "state": "Haryana", "capital": false}, {"name": "Anantapur", "pop": 350000, "lat": 14.68, "lng": 77.6, "state": "Andhra Pradesh", "capital": false}, {"name": "Kollam", "pop": 350000, "lat": 8.88, "lng": 76.59, "state": "Kerala", "capital": false}, {"name": "Burdwan", "pop": 350000, "lat": 23.23, "lng": 87.87, "state": "West Bengal", "capital": false}, {"name": "Thoothukudi", "pop": 340000, "lat": 8.76, "lng": 78.13, "state": "Tamil Nadu", "capital": false}, {"name": "Rajahmundry", "pop": 340000, "lat": 17.0, "lng": 81.8, "state": "Andhra Pradesh", "capital": false}, {"name": "Kadapa", "pop": 340000, "lat": 14.47, "lng": 78.82, "state": "Andhra Pradesh", "capital": false}, {"name": "Alwar", "pop": 340000, "lat": 27.55, "lng": 76.63, "state": "Rajasthan", "capital": false}, {"name": "Rampur", "pop": 325000, "lat": 28.81, "lng": 79.02, "state": "Uttar Pradesh", "capital": false}, {"name": "Shimoga", "pop": 320000, "lat": 13.93, "lng": 75.57, "state": "Karnataka", "capital": false}, {"name": "Thrissur", "pop": 320000, "lat": 10.52, "lng": 76.21, "state": "Kerala", "capital": false}, {"name": "Shahjahanpur", "pop": 320000, "lat": 27.88, "lng": 79.91, "state": "Uttar Pradesh", "capital": false}, {"name": "Junagadh", "pop": 320000, "lat": 21.52, "lng": 70.46, "state": "Gujarat", "capital": false}, {"name": "Nizamabad", "pop": 310000, "lat": 18.67, "lng": 78.09, "state": "Telangana", "capital": false}, {"name": "Darbhanga", "pop": 310000, "lat": 26.17, "lng": 85.9, "state": "Bihar", "capital": false}, {"name": "Tumkur", "pop": 300000, "lat": 13.34, "lng": 77.1, "state": "Karnataka", "capital": false}, {"name": "Hisar", "pop": 300000, "lat": 29.17, "lng": 75.72, "state": "Haryana", "capital": false}, {"name": "Bihar Sharif", "pop": 300000, "lat": 25.19, "lng": 85.52, "state": "Bihar", "capital": false}, {"name": "Chandrapur", "pop": 300000, "lat": 19.97, "lng": 79.3, "state": "Maharashtra", "capital": false}, {"name": "Gandhinagar", "pop": 290000, "lat": 23.22, "lng": 72.65, "state": "Gujarat", "capital": true}, {"name": "Aizawl", "pop": 290000, "lat": 23.73, "lng": 92.72, "state": "Mizoram", "capital": true}, {"name": "Karnal", "pop": 290000, "lat": 29.68, "lng": 76.98, "state": "Haryana", "capital": false}, {"name": "Dewas", "pop": 290000, "lat": 22.96, "lng": 76.05, "state": "Madhya Pradesh", "capital": false}, {"name": "Ichalkaranji", "pop": 290000, "lat": 16.69, "lng": 74.46, "state": "Maharashtra", "capital": false}, {"name": "Jaunpur", "pop": 280000, "lat": 25.73, "lng": 82.68, "state": "Uttar Pradesh", "capital": false}, {"name": "Sonipat", "pop": 280000, "lat": 28.99, "lng": 77.02, "state": "Haryana", "capital": false}, {"name": "Barasat", "pop": 280000, "lat": 22.72, "lng": 88.48, "state": "West Bengal", "capital": false}, {"name": "Sagar", "pop": 280000, "lat": 23.84, "lng": 78.74, "state": "Madhya Pradesh", "capital": false}, {"name": "Satna", "pop": 280000, "lat": 24.58, "lng": 80.83, "state": "Madhya Pradesh", "capital": false}, {"name": "Jalna", "pop": 280000, "lat": 19.84, "lng": 75.88, "state": "Maharashtra", "capital": false}, {"name": "Imphal", "pop": 270000, "lat": 24.82, "lng": 93.95, "state": "Manipur", "capital": true}, {"name": "Durg", "pop": 270000, "lat": 21.19, "lng": 81.28, "state": "Chhattisgarh", "capital": false}, {"name": "Karimnagar", "pop": 260000, "lat": 18.44, "lng": 79.13, "state": "Telangana", "capital": false}, {"name": "Khammam", "pop": 260000, "lat": 17.25, "lng": 80.15, "state": "Telangana", "capital": false}, {"name": "Arrah", "pop": 260000, "lat": 25.56, "lng": 84.66, "state": "Bihar", "capital": false}, {"name": "Ratlam", "pop": 260000, "lat": 23.33, "lng": 75.04, "state": "Madhya Pradesh", "capital": false}, {"name": "Parbhani", "pop": 260000, "lat": 19.27, "lng": 76.78, "state": "Maharashtra", "capital": false}, {"name": "New Delhi", "pop": 250000, "lat": 28.61, "lng": 77.21, "state": "Delhi", "capital": true}, {"name": "Ramagundam", "pop": 250000, "lat": 18.76, "lng": 79.47, "state": "Telangana", "capital": false}, {"name": "Bharatpur", "pop": 250000, "lat": 27.22, "lng": 77.49, "state": "Rajasthan", "capital": false}, {"name": "Mirzapur", "pop": 250000, "lat": 25.15, "lng": 82.57, "state": "Uttar Pradesh", "capital": false}, {"name": "Begusarai", "pop": 250000, "lat": 25.42, "lng": 86.13, "state": "Bihar", "capital": false}, {"name": "Puducherry", "pop": 240000, "lat": 11.93, "lng": 79.83, "state": "Puducherry", "capital": true}, {"name": "Raichur", "pop": 240000, "lat": 16.21, "lng": 77.36, "state": "Karnataka", "capital": false}, {"name": "Sikar", "pop": 240000, "lat": 27.62, "lng": 75.14, "state": "Rajasthan", "capital": false}, {"name": "Katihar", "pop": 240000, "lat": 25.54, "lng": 87.58, "state": "Bihar", "capital": false}, {"name": "Navsari", "pop": 240000, "lat": 20.95, "lng": 72.92, "state": "Gujarat", "capital": false}, {"name": "Kannur", "pop": 230000, "lat": 11.87, "lng": 75.37, "state": "Kerala", "capital": false}, {"name": "Sri Ganganagar", "pop": 230000, "lat": 29.91, "lng": 73.88, "state": "Rajasthan", "capital": false}, {"name": "Yamunanagar", "pop": 230000, "lat": 30.13, "lng": 77.27, "state": "Haryana", "capital": false}, {"name": "Haridwar", "pop": 230000, "lat": 29.95, "lng": 78.16, "state": "Uttarakhand", "capital": false}, {"name": "Haldwani", "pop": 230000, "lat": 29.22, "lng": 79.52, "state": "Uttarakhand", "capital": false}, {"name": "Rewa", "pop": 230000, "lat": 24.53, "lng": 81.3, "state": "Madhya Pradesh", "capital": false}, {"name": "Gandhidham", "pop": 230000, "lat": 23.08, "lng": 70.13, "state": "Gujarat", "capital": false}, {"name": "Thanjavur", "pop": 220000, "lat": 10.79, "lng": 79.14, "state": "Tamil Nadu", "capital": false}, {"name": "Nagercoil", "pop": 220000, "lat": 8.18, "lng": 77.43, "state": "Tamil Nadu", "capital": false}, {"name": "Panchkula", "pop": 220000, "lat": 30.69, "lng": 76.85, "state": "Haryana", "capital": false}, {"name": "Nadiad", "pop": 220000, "lat": 22.69, "lng": 72.86, "state": "Gujarat", "capital": false}, {"name": "Dindigul", "pop": 210000, "lat": 10.37, "lng": 77.97, "state": "Tamil Nadu", "capital": false}, {"name": "Eluru", "pop": 210000, "lat": 16.71, "lng": 81.1, "state": "Andhra Pradesh", "capital": false}, {"name": "Bidar", "pop": 210000, "lat": 17.91, "lng": 77.52, "state": "Karnataka", "capital": false}, {"name": "Pali", "pop": 210000, "lat": 25.77, "lng": 73.33, "state": "Rajasthan", "capital": false}, {"name": "Etawah", "pop": 210000, "lat": 26.78, "lng": 79.02, "state": "Uttar Pradesh", "capital": false}, {"name": "Ambala", "pop": 210000, "lat": 30.38, "lng": 76.77, "state": "Haryana", "capital": false}, {"name": "Kharagpur", "pop": 210000, "lat": 22.35, "lng": 87.33, "state": "West Bengal", "capital": false}, {"name": "Murwara", "pop": 210000, "lat": 23.84, "lng": 80.39, "state": "Madhya Pradesh", "capital": false}, {"name": "Mahbubnagar", "pop": 200000, "lat": 16.74, "lng": 78.0, "state": "Telangana", "capital": false}, {"name": "Ongole", "pop": 200000, "lat": 15.5, "lng": 80.05, "state": "Andhra Pradesh", "capital": false}, {"name": "Hospet", "pop": 200000, "lat": 15.27, "lng": 76.39, "state": "Karnataka", "capital": false}, {"name": "Puri", "pop": 200000, "lat": 19.81, "lng": 85.83, "state": "Odisha", "capital": false}, {"name": "Sambalpur", "pop": 200000, "lat": 21.47, "lng": 83.97, "state": "Odisha", "capital": false}, {"name": "Fatehpur", "pop": 200000, "lat": 25.93, "lng": 80.81, "state": "Uttar Pradesh", "capital": false}, {"name": "Bhiwani", "pop": 200000, "lat": 28.79, "lng": 76.13, "state": "Haryana", "capital": false}, {"name": "Chapra", "pop": 200000, "lat": 25.78, "lng": 84.74, "state": "Bihar", "capital": false}, {"name": "Munger", "pop": 200000, "lat": 25.37, "lng": 86.47, "state": "Bihar", "capital": false}, {"name": "Malda", "pop": 200000, "lat": 25.01, "lng": 88.14, "state": "West Bengal", "capital": false}, {"name": "Haldia", "pop": 200000, "lat": 22.06, "lng": 88.06, "state": "West Bengal", "capital": false}, {"name": "Deoghar", "pop": 200000, "lat": 24.49, "lng": 86.69, "state": "Jharkhand", "capital": false}, {"name": "Singrauli", "pop": 200000, "lat": 24.2, "lng": 82.67, "state": "Madhya Pradesh", "capital": false}, {"name": "Burhanpur", "pop": 200000, "lat": 21.31, "lng": 76.23, "state": "Madhya Pradesh", "capital": false}, {"name": "Khandwa", "pop": 200000, "lat": 21.82, "lng": 76.35, "state": "Madhya Pradesh", "capital": false}, {"name": "Anand", "pop": 200000, "lat": 22.56, "lng": 72.95, "state": "Gujarat", "capital": false}, {"name": "Mehsana", "pop": 200000, "lat": 23.59, "lng": 72.38, "state": "Gujarat", "capital": false}, {"name": "Rae Bareli", "pop": 190000, "lat": 26.23, "lng": 81.24, "state": "Uttar Pradesh", "capital": false}, {"name": "Bahraich", "pop": 190000, "lat": 27.57, "lng": 81.6, "state": "Uttar Pradesh", "capital": false}, {"name": "Sirsa", "pop": 190000, "lat": 29.54, "lng": 75.03, "state": "Haryana", "capital": false}, {"name": "Baharampur", "pop": 190000, "lat": 24.1, "lng": 88.25, "state": "West Bengal", "capital": false}, {"name": "Morena", "pop": 190000, "lat": 26.5, "lng": 77.99, "state": "Madhya Pradesh", "capital": false}, {"name": "Morbi", "pop": 190000, "lat": 22.82, "lng": 70.83, "state": "Gujarat", "capital": false}, {"name": "Bhusawal", "pop": 190000, "lat": 21.05, "lng": 75.78, "state": "Maharashtra", "capital": false}, {"name": "Silchar", "pop": 190000, "lat": 24.82, "lng": 92.79, "state": "Assam", "capital": false}, {"name": "Cuddalore", "pop": 180000, "lat": 11.75, "lng": 79.77, "state": "Tamil Nadu", "capital": false}, {"name": "Proddatur", "pop": 180000, "lat": 14.75, "lng": 78.55, "state": "Andhra Pradesh", "capital": false}, {"name": "Alappuzha", "pop": 180000, "lat": 9.49, "lng": 76.34, "state": "Kerala", "capital": false}, {"name": "Malappuram", "pop": 180000, "lat": 11.04, "lng": 76.08, "state": "Kerala", "capital": false}, {"name": "Unnao", "pop": 180000, "lat": 26.55, "lng": 80.49, "state": "Uttar Pradesh", "capital": false}, {"name": "Bhind", "pop": 180000, "lat": 26.56, "lng": 78.78, "state": "Madhya Pradesh", "capital": false}, {"name": "Surendranagar", "pop": 180000, "lat": 22.73, "lng": 71.65, "state": "Gujarat", "capital": false}, {"name": "Panvel", "pop": 180000, "lat": 18.99, "lng": 73.12, "state": "Maharashtra", "capital": false}, {"name": "Shimla", "pop": 170000, "lat": 31.1, "lng": 77.17, "state": "Himachal Pradesh", "capital": true}, {"name": "Machilipatnam", "pop": 170000, "lat": 16.17, "lng": 81.13, "state": "Andhra Pradesh", "capital": false}, {"name": "Gadag-Betageri", "pop": 170000, "lat": 15.42, "lng": 75.63, "state": "Karnataka", "capital": false}, {"name": "Robertson Pet", "pop": 170000, "lat": 12.96, "lng": 78.27, "state": "Karnataka", "capital": false}, {"name": "Tonk", "pop": 170000, "lat": 26.17, "lng": 75.79, "state": "Rajasthan", "capital": false}, {"name": "Sitapur", "pop": 170000, "lat": 27.57, "lng": 80.68, "state": "Uttar Pradesh", "capital": false}, {"name": "Jind", "pop": 170000, "lat": 29.32, "lng": 76.32, "state": "Haryana", "capital": false}, {"name": "Bahadurgarh", "pop": 170000, "lat": 28.69, "lng": 76.93, "state": "Haryana", "capital": false}, {"name": "Medinipur", "pop": 170000, "lat": 22.42, "lng": 87.32, "state": "West Bengal", "capital": false}, {"name": "Rajnandgaon", "pop": 170000, "lat": 21.1, "lng": 81.03, "state": "Chhattisgarh", "capital": false}, {"name": "Bharuch", "pop": 170000, "lat": 21.7, "lng": 72.98, "state": "Gujarat", "capital": false}, {"name": "Pathankot", "pop": 170000, "lat": 32.27, "lng": 75.65, "state": "Punjab", "capital": false}, {"name": "Hoshiarpur", "pop": 170000, "lat": 31.53, "lng": 75.91, "state": "Punjab", "capital": false}, {"name": "Kanchipuram", "pop": 160000, "lat": 12.83, "lng": 79.7, "state": "Tamil Nadu", "capital": false}, {"name": "Tenali", "pop": 160000, "lat": 16.24, "lng": 80.64, "state": "Andhra Pradesh", "capital": false}, {"name": "Udupi", "pop": 160000, "lat": 13.34, "lng": 74.75, "state": "Karnataka", "capital": false}, {"name": "Banda", "pop": 160000, "lat": 25.48, "lng": 80.34, "state": "Uttar Pradesh", "capital": false}, {"name": "Thanesar", "pop": 160000, "lat": 29.97, "lng": 76.82, "state": "Haryana", "capital": false}, {"name": "Saharsa", "pop": 160000, "lat": 25.88, "lng": 86.6, "state": "Bihar", "capital": false}, {"name": "Shantipur", "pop": 160000, "lat": 23.25, "lng": 88.43, "state": "West Bengal", "capital": false}, {"name": "Chhindwara", "pop": 160000, "lat": 22.06, "lng": 78.94, "state": "Madhya Pradesh", "capital": false}, {"name": "Guna", "pop": 160000, "lat": 24.65, "lng": 77.31, "state": "Madhya Pradesh", "capital": false}, {"name": "Shivpuri", "pop": 160000, "lat": 25.43, "lng": 77.66, "state": "Madhya Pradesh", "capital": false}, {"name": "Veraval", "pop": 160000, "lat": 20.91, "lng": 70.37, "state": "Gujarat", "capital": false}, {"name": "Moga", "pop": 160000, "lat": 30.82, "lng": 75.17, "state": "Punjab", "capital": false}, {"name": "Rudrapur", "pop": 155000, "lat": 28.97, "lng": 79.41, "state": "Uttarakhand", "capital": false}, {"name": "Shillong", "pop": 150000, "lat": 25.57, "lng": 91.88, "state": "Meghalaya", "capital": true}, {"name": "Karur", "pop": 150000, "lat": 10.96, "lng": 78.08, "state": "Tamil Nadu", "capital": false}, {"name": "Chittoor", "pop": 150000, "lat": 13.22, "lng": 79.1, "state": "Andhra Pradesh", "capital": false}, {"name": "Hindupur", "pop": 150000, "lat": 15.5, "lng": 77.49, "state": "Andhra Pradesh", "capital": false}, {"name": "Balasore", "pop": 150000, "lat": 21.49, "lng": 86.93, "state": "Odisha", "capital": false}, {"name": "Kishangarh", "pop": 150000, "lat": 26.59, "lng": 74.85, "state": "Rajasthan", "capital": false}, {"name": "Hanumangarh", "pop": 150000, "lat": 29.58, "lng": 74.33, "state": "Rajasthan", "capital": false}, {"name": "Lakhimpur Kheri", "pop": 150000, "lat": 27.95, "lng": 80.78, "state": "Uttar Pradesh", "capital": false}, {"name": "Krishnanagar", "pop": 150000, "lat": 23.4, "lng": 88.5, "state": "West Bengal", "capital": false}, {"name": "Balurghat", "pop": 150000, "lat": 25.22, "lng": 88.77, "state": "West Bengal", "capital": false}, {"name": "Hazaribagh", "pop": 150000, "lat": 23.99, "lng": 85.36, "state": "Jharkhand", "capital": false}, {"name": "Porbandar", "pop": 150000, "lat": 21.64, "lng": 69.6, "state": "Gujarat", "capital": false}, {"name": "Dibrugarh", "pop": 150000, "lat": 27.47, "lng": 95.0, "state": "Assam", "capital": false}, {"name": "Najafgarh", "pop": 150000, "lat": 28.61, "lng": 76.98, "state": "Delhi", "capital": false}, {"name": "Kumbakonam", "pop": 140000, "lat": 10.96, "lng": 79.39, "state": "Tamil Nadu", "capital": false}, {"name": "Hardoi", "pop": 140000, "lat": 27.4, "lng": 80.13, "state": "Uttar Pradesh", "capital": false}, {"name": "Habra", "pop": 140000, "lat": 22.84, "lng": 88.63, "state": "West Bengal", "capital": false}, {"name": "Bankura", "pop": 140000, "lat": 23.23, "lng": 87.07, "state": "West Bengal", "capital": false}, {"name": "Palanpur", "pop": 140000, "lat": 24.17, "lng": 72.43, "state": "Gujarat", "capital": false}, {"name": "Godhra", "pop": 140000, "lat": 22.77, "lng": 73.62, "state": "Gujarat", "capital": false}, {"name": "Bhuj", "pop": 140000, "lat": 23.25, "lng": 69.67, "state": "Gujarat", "capital": false}, {"name": "Nalgonda", "pop": 130000, "lat": 17.05, "lng": 79.27, "state": "Telangana", "capital": false}, {"name": "Srikakulam", "pop": 130000, "lat": 18.3, "lng": 83.9, "state": "Andhra Pradesh", "capital": false}, {"name": "Hassan", "pop": 130000, "lat": 13.01, "lng": 76.1, "state": "Karnataka", "capital": false}, {"name": "Mandya", "pop": 130000, "lat": 12.52, "lng": 76.9, "state": "Karnataka", "capital": false}, {"name": "Palakkad", "pop": 130000, "lat": 10.77, "lng": 76.65, "state": "Kerala", "capital": false}, {"name": "Beawar", "pop": 130000, "lat": 26.1, "lng": 74.32, "state": "Rajasthan", "capital": false}, {"name": "Kaithal", "pop": 130000, "lat": 29.8, "lng": 76.4, "state": "Haryana", "capital": false}, {"name": "Rewari", "pop": 130000, "lat": 28.19, "lng": 76.62, "state": "Haryana", "capital": false}, {"name": "Sasaram", "pop": 130000, "lat": 24.95, "lng": 84.03, "state": "Bihar", "capital": false}, {"name": "Siwan", "pop": 130000, "lat": 26.22, "lng": 84.36, "state": "Bihar", "capital": false}, {"name": "Bettiah", "pop": 130000, "lat": 26.8, "lng": 84.52, "state": "Bihar", "capital": false}, {"name": "Basirhat", "pop": 130000, "lat": 22.66, "lng": 88.87, "state": "West Bengal", "capital": false}, {"name": "Vidisha", "pop": 130000, "lat": 23.52, "lng": 77.81, "state": "Madhya Pradesh", "capital": false}, {"name": "Gondia", "pop": 130000, "lat": 21.46, "lng": 80.19, "state": "Maharashtra", "capital": false}, {"name": "Abohar", "pop": 130000, "lat": 30.14, "lng": 74.2, "state": "Punjab", "capital": false}, {"name": "Hosur", "pop": 120000, "lat": 12.74, "lng": 77.83, "state": "Tamil Nadu", "capital": false}, {"name": "Adilabad", "pop": 120000, "lat": 19.67, "lng": 78.53, "state": "Telangana", "capital": false}, {"name": "Chittorgarh", "pop": 120000, "lat": 24.88, "lng": 74.63, "state": "Rajasthan", "capital": false}, {"name": "Dhaulpur", "pop": 120000, "lat": 26.69, "lng": 77.88, "state": "Rajasthan", "capital": false}, {"name": "Sawai Madhopur", "pop": 120000, "lat": 26.02, "lng": 76.36, "state": "Rajasthan", "capital": false}, {"name": "Roorkee", "pop": 120000, "lat": 29.87, "lng": 77.89, "state": "Uttarakhand", "capital": false}, {"name": "Kashipur", "pop": 120000, "lat": 29.21, "lng": 78.96, "state": "Uttarakhand", "capital": false}, {"name": "Hajipur", "pop": 120000, "lat": 25.68, "lng": 85.21, "state": "Bihar", "capital": false}, {"name": "Motihari", "pop": 120000, "lat": 26.65, "lng": 84.92, "state": "Bihar", "capital": false}, {"name": "Giridih", "pop": 120000, "lat": 24.19, "lng": 86.3, "state": "Jharkhand", "capital": false}, {"name": "Jagdalpur", "pop": 120000, "lat": 19.08, "lng": 82.02, "state": "Chhattisgarh", "capital": false}, {"name": "Vapi", "pop": 120000, "lat": 20.37, "lng": 72.91, "state": "Gujarat", "capital": false}, {"name": "Patan", "pop": 120000, "lat": 23.85, "lng": 72.13, "state": "Gujarat", "capital": false}, {"name": "Beed", "pop": 120000, "lat": 18.99, "lng": 75.76, "state": "Maharashtra", "capital": false}, {"name": "Yavatmal", "pop": 120000, "lat": 20.39, "lng": 78.12, "state": "Maharashtra", "capital": false}, {"name": "Batala", "pop": 120000, "lat": 31.82, "lng": 75.2, "state": "Punjab", "capital": false}, {"name": "Barnala", "pop": 120000, "lat": 30.38, "lng": 75.55, "state": "Punjab", "capital": false}, {"name": "Nagaon", "pop": 120000, "lat": 26.35, "lng": 92.69, "state": "Assam", "capital": false}, {"name": "Dimapur", "pop": 120000, "lat": 25.91, "lng": 93.73, "state": "Nagaland", "capital": false}, {"name": "Panaji", "pop": 110000, "lat": 15.49, "lng": 73.82, "state": "Goa", "capital": true}, {"name": "Baripada", "pop": 110000, "lat": 21.93, "lng": 86.72, "state": "Odisha", "capital": false}, {"name": "Basti", "pop": 110000, "lat": 26.8, "lng": 82.73, "state": "Uttar Pradesh", "capital": false}, {"name": "Azamgarh", "pop": 110000, "lat": 26.07, "lng": 83.19, "state": "Uttar Pradesh", "capital": false}, {"name": "Ambikapur", "pop": 110000, "lat": 23.12, "lng": 83.2, "state": "Chhattisgarh", "capital": false}, {"name": "Damoh", "pop": 110000, "lat": 23.84, "lng": 79.44, "state": "Madhya Pradesh", "capital": false}, {"name": "Mandsaur", "pop": 110000, "lat": 24.07, "lng": 75.07, "state": "Madhya Pradesh", "capital": false}, {"name": "Osmanabad", "pop": 110000, "lat": 18.19, "lng": 76.05, "state": "Maharashtra", "capital": false}, {"name": "Wardha", "pop": 110000, "lat": 20.74, "lng": 78.6, "state": "Maharashtra", "capital": false}, {"name": "Phagwara", "pop": 110000, "lat": 31.22, "lng": 75.77, "state": "Punjab", "capital": false}, {"name": "Muktsar", "pop": 110000, "lat": 30.47, "lng": 74.52, "state": "Punjab", "capital": false}, {"name": "Jorhat", "pop": 110000, "lat": 26.76, "lng": 94.21, "state": "Assam", "capital": false}, {"name": "Dispur", "pop": 100000, "lat": 26.14, "lng": 91.78, "state": "Assam", "capital": true}, {"name": "Gangtok", "pop": 100000, "lat": 27.33, "lng": 88.62, "state": "Sikkim", "capital": true}, {"name": "Kohima", "pop": 100000, "lat": 25.67, "lng": 94.12, "state": "Nagaland", "capital": true}, {"name": "Silvassa", "pop": 100000, "lat": 20.27, "lng": 73.0, "state": "Dadra and Nagar Haveli and Daman and Diu", "capital": true}, {"name": "Port Blair", "pop": 100000, "lat": 11.67, "lng": 92.74, "state": "Andaman and Nicobar Islands", "capital": true}, {"name": "Suryapet", "pop": 100000, "lat": 17.14, "lng": 79.62, "state": "Telangana", "capital": false}, {"name": "Manjeri", "pop": 100000, "lat": 11.12, "lng": 76.12, "state": "Kerala", "capital": false}, {"name": "Thalassery", "pop": 100000, "lat": 11.75, "lng": 75.49, "state": "Kerala", "capital": false}, {"name": "Bhadrak", "pop": 100000, "lat": 21.05, "lng": 86.5, "state": "Odisha", "capital": false}, {"name": "Barmer", "pop": 100000, "lat": 25.75, "lng": 71.38, "state": "Rajasthan", "capital": false}, {"name": "Bundi", "pop": 100000, "lat": 25.44, "lng": 75.64, "state": "Rajasthan", "capital": false}, {"name": "Nagaur", "pop": 100000, "lat": 27.2, "lng": 73.73, "state": "Rajasthan", "capital": false}, {"name": "Sultanpur", "pop": 100000, "lat": 26.26, "lng": 82.07, "state": "Uttar Pradesh", "capital": false}, {"name": "Deoria", "pop": 100000, "lat": 26.5, "lng": 83.79, "state": "Uttar Pradesh", "capital": false}, {"name": "Tinsukia", "pop": 100000, "lat": 27.49, "lng": 95.36, "state": "Assam", "capital": false}, {"name": "Margao", "pop": 100000, "lat": 15.27, "lng": 73.96, "state": "Goa", "capital": false}, {"name": "Vasco da Gama", "pop": 100000, "lat": 15.4, "lng": 73.81, "state": "Goa", "capital": false}, {"name": "Jharsuguda", "pop": 90000, "lat": 21.86, "lng": 84.01, "state": "Odisha", "capital": false}, {"name": "Jaisalmer", "pop": 90000, "lat": 26.92, "lng": 70.91, "state": "Rajasthan", "capital": false}, {"name": "Karaikal", "pop": 90000, "lat": 10.92, "lng": 79.84, "state": "Puducherry", "capital": false}, {"name": "Jeypore", "pop": 80000, "lat": 18.85, "lng": 82.57, "state": "Odisha", "capital": false}, {"name": "Jehanabad", "pop": 80000, "lat": 25.21, "lng": 84.99, "state": "Bihar", "capital": false}, {"name": "Tezpur", "pop": 80000, "lat": 26.63, "lng": 92.79, "state": "Assam", "capital": false}, {"name": "Rishikesh", "pop": 75000, "lat": 30.09, "lng": 78.27, "state": "Uttarakhand", "capital": false}, {"name": "Kasaragod", "pop": 70000, "lat": 12.5, "lng": 74.99, "state": "Kerala", "capital": false}, {"name": "Ayodhya", "pop": 70000, "lat": 26.8, "lng": 82.2, "state": "Uttar Pradesh", "capital": false}, {"name": "Chaibasa", "pop": 70000, "lat": 22.55, "lng": 85.8, "state": "Jharkhand", "capital": false}, {"name": "Dhamtari", "pop": 70000, "lat": 20.71, "lng": 81.55, "state": "Chhattisgarh", "capital": false}, {"name": "Bongaigaon", "pop": 70000, "lat": 26.48, "lng": 90.56, "state": "Assam", "capital": false}, {"name": "Tura", "pop": 70000, "lat": 25.52, "lng": 90.22, "state": "Meghalaya", "capital": false}, {"name": "Itanagar", "pop": 60000, "lat": 27.1, "lng": 93.62, "state": "Arunachal Pradesh", "capital": true}, {"name": "Kottayam", "pop": 60000, "lat": 9.59, "lng": 76.52, "state": "Kerala", "capital": false}, {"name": "Mahasamund", "pop": 60000, "lat": 21.11, "lng": 82.1, "state": "Chhattisgarh", "capital": false}, {"name": "Karimganj", "pop": 60000, "lat": 24.87, "lng": 92.35, "state": "Assam", "capital": false}, {"name": "Udaipur", "pop": 60000, "lat": 23.53, "lng": 91.48, "state": "Tripura", "capital": false}, {"name": "Anantnag", "pop": 60000, "lat": 33.73, "lng": 75.15, "state": "Jammu and Kashmir", "capital": false}, {"name": "Dharamshala", "pop": 55000, "lat": 32.22, "lng": 76.32, "state": "Himachal Pradesh", "capital": false}, {"name": "Baramulla", "pop": 55000, "lat": 34.2, "lng": 74.34, "state": "Jammu and Kashmir", "capital": false}, {"name": "Amaravati", "pop": 50000, "lat": 16.51, "lng": 80.35, "state": "Andhra Pradesh", "capital": true}, {"name": "Dumka", "pop": 50000, "lat": 24.27, "lng": 87.25, "state": "Jharkhand", "capital": false}, {"name": "Dharmanagar", "pop": 50000, "lat": 24.37, "lng": 92.17, "state": "Tripura", "capital": false}, {"name": "Sopore", "pop": 50000, "lat": 34.3, "lng": 74.47, "state": "Jammu and Kashmir", "capital": false}, {"name": "Kathua", "pop": 45000, "lat": 32.38, "lng": 75.52, "state": "Jammu and Kashmir", "capital": false}, {"name": "Nainital", "pop": 40000, "lat": 29.38, "lng": 79.45, "state": "Uttarakhand", "capital": false}, {"name": "Naharlagun", "pop": 40000, "lat": 27.11, "lng": 93.7, "state": "Arunachal Pradesh", "capital": false}, {"name": "Mapusa", "pop": 40000, "lat": 15.59, "lng": 73.81, "state": "Goa", "capital": false}, {"name": "Daman", "pop": 40000, "lat": 20.41, "lng": 72.84, "state": "Dadra and Nagar Haveli and Daman and Diu", "capital": false}, {"name": "Mahe", "pop": 40000, "lat": 11.7, "lng": 75.53, "state": "Puducherry", "capital": false}, {"name": "Solan", "pop": 40000, "lat": 30.91, "lng": 77.1, "state": "Himachal Pradesh", "capital": false}, {"name": "Yanam", "pop": 35000, "lat": 16.73, "lng": 82.22, "state": "Puducherry", "capital": false}, {"name": "Mandi", "pop": 35000, "lat": 31.71, "lng": 76.93, "state": "Himachal Pradesh", "capital": false}, {"name": "Udhampur", "pop": 35000, "lat": 32.93, "lng": 75.13, "state": "Jammu and Kashmir", "capital": false}, {"name": "Leh", "pop": 30000, "lat": 34.15, "lng": 77.58, "state": "Ladakh", "capital": true}, {"name": "Mussoorie", "pop": 30000, "lat": 30.45, "lng": 78.07, "state": "Uttarakhand", "capital": false}, {"name": "Mokokchung", "pop": 30000, "lat": 26.32, "lng": 94.52, "state": "Nagaland", "capital": false}, {"name": "Jowai", "pop": 30000, "lat": 25.45, "lng": 92.2, "state": "Meghalaya", "capital": false}, {"name": "Bishnupur", "pop": 30000, "lat": 24.63, "lng": 93.78, "state": "Manipur", "capital": false}, {"name": "Churachandpur", "pop": 30000, "lat": 24.33, "lng": 93.68, "state": "Manipur", "capital": false}, {"name": "Kailashahar", "pop": 30000, "lat": 24.33, "lng": 92.01, "state": "Tripura", "capital": false}, {"name": "Tuensang", "pop": 25000, "lat": 26.27, "lng": 94.83, "state": "Nagaland", "capital": false}, {"name": "Thoubal", "pop": 25000, "lat": 24.63, "lng": 94.02, "state": "Manipur", "capital": false}, {"name": "Lunglei", "pop": 25000, "lat": 22.88, "lng": 92.73, "state": "Mizoram", "capital": false}, {"name": "Pasighat", "pop": 25000, "lat": 28.07, "lng": 95.33, "state": "Arunachal Pradesh", "capital": false}, {"name": "Ponda", "pop": 25000, "lat": 15.4, "lng": 74.01, "state": "Goa", "capital": false}, {"name": "Una", "pop": 25000, "lat": 31.47, "lng": 76.27, "state": "Himachal Pradesh", "capital": false}, {"name": "Nahan", "pop": 25000, "lat": 30.56, "lng": 77.3, "state": "Himachal Pradesh", "capital": false}, {"name": "Pulwama", "pop": 25000, "lat": 33.87, "lng": 74.9, "state": "Jammu and Kashmir", "capital": false}, {"name": "Belonia", "pop": 25000, "lat": 23.25, "lng": 91.45, "state": "Tripura", "capital": false}, {"name": "Diu", "pop": 23000, "lat": 20.71, "lng": 70.98, "state": "Dadra and Nagar Haveli and Daman and Diu", "capital": false}, {"name": "Wokha", "pop": 20000, "lat": 26.1, "lng": 94.27, "state": "Nagaland", "capital": false}, {"name": "Nongstoin", "pop": 20000, "lat": 25.52, "lng": 91.27, "state": "Meghalaya", "capital": false}, {"name": "Champhai", "pop": 20000, "lat": 23.46, "lng": 93.33, "state": "Mizoram", "capital": false}, {"name": "Kullu", "pop": 20000, "lat": 31.96, "lng": 77.11, "state": "Himachal Pradesh", "capital": false}, {"name": "Chamba", "pop": 20000, "lat": 32.55, "lng": 76.13, "state": "Himachal Pradesh", "capital": false}, {"name": "Poonch", "pop": 20000, "lat": 33.77, "lng": 74.09, "state": "Jammu and Kashmir", "capital": false}, {"name": "Khowai", "pop": 20000, "lat": 24.07, "lng": 91.6, "state": "Tripura", "capital": false}, {"name": "Hamirpur", "pop": 18000, "lat": 31.68, "lng": 76.52, "state": "Himachal Pradesh", "capital": false}, {"name": "Kargil", "pop": 16000, "lat": 34.55, "lng": 76.13, "state": "Ladakh", "capital": false}, {"name": "Serchhip", "pop": 15000, "lat": 23.0, "lng": 92.85, "state": "Mizoram", "capital": false}, {"name": "Ambassa", "pop": 15000, "lat": 23.92, "lng": 91.85, "state": "Tripura", "capital": false}, {"name": "Ziro", "pop": 15000, "lat": 27.55, "lng": 93.83, "state": "Arunachal Pradesh", "capital": false}, {"name": "Diglipur", "pop": 15000, "lat": 13.27, "lng": 92.97, "state": "Andaman and Nicobar Islands", "capital": false}, {"name": "Kavaratti", "pop": 12000, "lat": 10.56, "lng": 72.64, "state": "Lakshadweep", "capital": true}, {"name": "Namchi", "pop": 12000, "lat": 27.17, "lng": 88.35, "state": "Sikkim", "capital": false}, {"name": "Palampur", "pop": 12000, "lat": 32.11, "lng": 76.54, "state": "Himachal Pradesh", "capital": false}, {"name": "Andrott", "pop": 11000, "lat": 10.82, "lng": 73.67, "state": "Lakshadweep", "capital": false}, {"name": "Tawang", "pop": 10000, "lat": 27.59, "lng": 91.86, "state": "Arunachal Pradesh", "capital": false}, {"name": "Along", "pop": 10000, "lat": 28.17, "lng": 94.77, "state": "Arunachal Pradesh", "capital": false}, {"name": "Gyalshing", "pop": 10000, "lat": 27.29, "lng": 88.26, "state": "Sikkim", "capital": false}, {"name": "Minicoy", "pop": 10000, "lat": 8.28, "lng": 73.05, "state": "Lakshadweep", "capital": false}, {"name": "Rangat", "pop": 10000, "lat": 12.5, "lng": 92.93, "state": "Andaman and Nicobar Islands", "capital": false}, {"name": "Mangan", "pop": 8000, "lat": 27.51, "lng": 88.53, "state": "Sikkim", "capital": false}, {"name": "Campbell Bay", "pop": 8000, "lat": 7.01, "lng": 93.93, "state": "Andaman and Nicobar Islands", "capital": false}, {"name": "Manali", "pop": 8000, "lat": 32.24, "lng": 77.19, "state": "Himachal Pradesh", "capital": false}, {"name": "Rangpo", "pop": 7000, "lat": 27.18, "lng": 88.53, "state": "Sikkim", "capital": false}, {"name": "Diskit", "pop": 3000, "lat": 34.53, "lng": 77.56, "state": "Ladakh", "capital": false}]